id;nome;modalidade;latitude;longitude;capacidade;disponivel
6;Quintalão do Petro C1;Futebol;-8.815000;13.228000;3000;0
5;Pavilhão Polidesportivo do ISPTEC;Futebol;-8.825000;13.240000;300;1
4;Live Act Patriota;Tenis;-8.830000;13.245000;800;1
3;Arena Premier Bet Benfica;Futebol;-8.805000;13.215000;1000;1
2;Pavilhao Kilamba;Basquetebol;-8.820000;13.235000;5000;1
1;Estadio da Cidadela;Futebol;-8.810000;13.220000;50000;1
